     3.04           OBSERVATION DATA    M: Mixed            RINEX VERSION / TYPE
RTKCONV demo5 b34d                      20230410 080009 UTC PGM / RUN BY / DATE 
format: Javad GREIS                                         COMMENT             
log: D:\PASKO\GNSS\practice 1\native_file_GNSS\01-Sigma-G3T.COMMENT             
                                                            MARKER NAME         
                                                            MARKER NUMBER       
                                                            MARKER TYPE         
                                                            OBSERVER / AGENCY   
                                                            REC # / TYPE / VERS 
                                                            ANT # / TYPE        
  2830779.8751  2196621.9863  5259103.1435                  APPROX POSITION XYZ 
        0.0000        0.0000        0.0000                  ANTENNA: DELTA H/E/N
G   16 C1C L1C D1C S1C C1W L1W D1W S1W C2W L2W D2W S2W C2X  SYS / # / OBS TYPES 
       L2X D2X S2X                                          SYS / # / OBS TYPES 
R   16 C1C L1C D1C S1C C1P L1P D1P S1P C2C L2C D2C S2C C2P  SYS / # / OBS TYPES 
       L2P D2P S2P                                          SYS / # / OBS TYPES 
  2020    09    18    08    07   42.0000000     GPS         TIME OF FIRST OBS   
  2020    09    18    08    37   26.0000000     GPS         TIME OF LAST OBS    
G L1C                                                       SYS / PHASE SHIFT   
G L1W  0.00000                                              SYS / PHASE SHIFT   
G L2W  0.00000                                              SYS / PHASE SHIFT   
G L2X  0.00000                                              SYS / PHASE SHIFT   
R L1C                                                       SYS / PHASE SHIFT   
R L1P  0.00000                                              SYS / PHASE SHIFT   
R L2C                                                       SYS / PHASE SHIFT   
R L2P  0.00000                                              SYS / PHASE SHIFT   
  9 R01  1 R02 -4 R08  6 R15  0 R16 -1 R17  4 R18 -3 R23  3 GLONASS SLOT / FRQ #
    R24  2                                                  GLONASS SLOT / FRQ #
 C1C    0.000 C1P    0.000 C2C    0.000 C2P    0.000        GLONASS COD/PHS/BIS 
                                                            END OF HEADER       
> 2020 09 18 08 07 42.0000000  0 15                     
R01  19401267.958   103711153.3221       -916.672          49.250    19401267.682   103710899.5791       -916.672          48.250    19401274.859    80664028.0381       -712.966          44.750    19401275.773    80664031.2851       -712.946          43.250  
R17  19493609.734   104314363.9331       1998.299          50.500    19493609.719   104314336.1831       1998.299          50.500    19493615.523    81133301.3771       1554.211          50.500    19493615.880    81133301.6261       1554.221          49.250  
G27  20714601.855   108855647.9021      -1123.577          51.250    20714601.030   108855961.1581      -1123.577          44.500    20714602.907    84822827.0371       -875.535          44.500    20714602.529    84822842.7901       -875.526          52.000  
R23  22359938.930   119610600.2041      -3938.167          45.750    22359938.199   119610606.4661      -3938.167          45.750    22359949.768    93030452.3461      -3063.038          35.500    22359947.822    93030453.5901      -3063.055          33.750  
G08  21314019.561   112005471.4131       1379.816          46.750    21314019.525   112005926.6501       1379.816          40.250    21314021.270    87277345.9821       1075.175          40.250    21314021.597    87277343.7411       1075.168          49.500  
G10  20419754.071   107306533.4841        349.548          52.750    20419754.074   107306531.7441        349.548          46.750    20419755.927    83615480.6611        272.374          46.750    20419755.531    83615481.4231        272.359          53.000  
G23  20788210.868   109242792.8711      -1792.789          48.250    20788211.120   109242783.1201      -1792.789          39.750    20788211.195    85124247.6761      -1396.959          39.750                                                                  
G18  23397631.863   122955507.5621      -3347.796          40.750    23397632.597   122955386.8341      -3347.796          25.750    23397632.363    95809391.9931      -2608.758          25.750    23397633.320    95809406.7721      -2608.700          38.500  
G20  20837407.407   109501292.6421      -1990.077          49.500    20837406.325   109501314.8951      -1990.077          39.250    20837406.229    85325699.6231      -1550.695          39.250                                                                  
R24  19665815.195   105161948.3901      -2076.592          52.250    19665815.540   105161943.6471      -2076.592          51.750    19665821.353    81792628.6771      -1615.114          47.750    19665821.530    81792630.9221      -1615.130          46.500  
G21  21251533.978   111677592.2901       1347.767          47.250    21251532.653   111677562.5501       1347.767          39.500    21251531.994    87021477.5361       1050.236          39.500                                                                  
R08  21920055.112   117380889.8721      -3736.756          48.500    21920055.375   117380894.1271      -3736.756          48.000    21920059.776    91296251.0911      -2906.365          41.750    21920059.591    91296251.3461      -2906.383          42.250  
R02  21166943.552   112951041.9371       3824.608          51.500    21166943.801   112950869.2041       3824.608          50.750    21166950.750    87850676.7561       2974.693          46.500    21166950.309    87850678.0051       2974.685          45.500  
G32  23926449.800   125734346.4811       3625.755          46.000    23926449.908   125734348.7191       3625.755          32.250    23926453.419    97974820.6631       2825.231          32.250    23926453.602    97974816.4241       2825.234          43.500  
G15  23678000.344   124428731.9241      -2938.934          41.000    23677999.688   124428728.1851      -2938.934          36.500    23678001.921    96957449.3711      -2290.146          36.500    23678002.884    96957462.1261      -2290.175          39.250  
> 2020 09 18 08 07 43.0000000  0 15                     
R01  19401439.739   103712070.334        -917.088          49.250    19401439.205   103711816.582        -917.088          48.250    19401446.367    80664741.261        -713.275          44.500    19401447.204    80664744.519        -713.263          43.250  
R17  19493236.720   104312365.869        1998.112          50.750    19493236.384   104312338.118        1998.112          50.500    19493242.407    81131747.326        1554.128          50.750    19493242.911    81131747.577        1554.119          49.250  
G27  20714815.562   108856771.722       -1123.823          51.250    20714814.899   108857084.980       -1123.823          44.500    20714816.725    84823702.738        -875.685          44.500    20714816.602    84823718.493        -875.686          52.250  
R23  22360675.035   119614538.499       -3938.102          46.000    22360674.714   119614544.759       -3938.102          45.750    22360684.322    93033515.462       -3062.930          35.750    22360684.095    93033516.697       -3062.929          33.750  
G08  21313757.270   112004091.931        1379.458          47.000    21313756.547   112004547.168        1379.458          40.250    21313758.745    87276271.060        1074.943          40.250    21313759.611    87276268.815        1074.946          49.500  
G10  20419687.760   107306184.133         349.408          52.750    20419687.529   107306182.390         349.408          46.750    20419689.481    83615208.438         272.288          46.750    20419689.151    83615209.201         272.287          53.250  
G23  20788552.590   109244585.789       -1792.887          48.500    20788552.284   109244576.041       -1792.887          39.750    20788552.599    85125644.762       -1397.067          39.750                                                                  
G18  23398268.984   122958855.397       -3347.562          40.750    23398270.091   122958734.682       -3347.562          25.250    23398270.202    95812000.688       -2608.535          25.250    23398269.092    95812015.471       -2608.517          38.250  
G20  20837786.312   109503282.862       -1990.112          49.500    20837784.945   109503305.109       -1990.112          39.500    20837784.963    85327250.444       -1550.700          39.500                                                                  
R24  19666203.589   105164025.167       -2076.753          52.500    19666204.074   105164020.423       -2076.753          51.750    19666209.953    81794243.947       -1615.239          47.750    19666209.980    81794246.190       -1615.233          46.500  
G21  21251277.527   111676244.627        1347.887          47.250    21251276.349   111676214.876        1347.887          39.500    21251275.746    87020427.409        1050.331          39.500                                                                  
R08  21920752.897   117384626.749       -3736.803          48.750    21920753.400   117384631.001       -3736.803          48.250    21920757.315    91299157.549       -2906.399          41.750    21920756.908    91299157.806       -2906.417          42.250  
R02  21166226.985   112947217.483        3824.579          51.500    21166226.958   112947044.745        3824.579          51.000    21166234.144    87847702.177        2974.693          46.500    21166233.649    87847703.424        2974.692          45.250  
G32  23925759.783   125730720.746        3626.059          46.250    23925759.747   125730722.983        3626.059          32.000    23925762.865    97971995.417        2825.525          32.000    23925763.689    97971991.178        2825.509          43.500  
G15  23678559.143   124431670.969       -2938.871          40.750    23678559.439   124431667.215       -2938.871          36.250    23678561.256    96959739.534       -2289.960          36.250    23678561.655    96959752.288       -2290.003          39.500  
> 2020 09 18 08 07 44.0000000  0 15                     
R01  19401610.968   103712987.920        -917.692          49.250    19401610.689   103712734.171        -917.692          48.250    19401618.415    80665454.940        -713.757          44.750    19401619.000    80665458.198        -713.759          43.250  
R17  19492863.218   104310368.077        1997.838          50.750    19492863.317   104310340.326        1997.838          50.500    19492869.237    81130193.486        1553.848          50.500    19492869.351    81130193.737        1553.850          49.250  
G27  20715029.347   108857895.925       -1124.180          51.000    20715028.828   108858209.183       -1124.180          44.500    20715030.549    84824578.745        -876.021          44.500    20715030.423    84824594.498        -876.016          52.000  
R23  22361411.043   119618476.790       -3938.173          46.250    22361411.076   119618483.056       -3938.173          46.000    22361421.251    93036578.571       -3063.016          35.500    22361421.092    93036579.805       -3062.984          34.000  
G08  21313494.520   112002712.775        1379.174          47.250    21313494.241   112003168.013        1379.174          40.250    21313496.429    87275196.391        1074.682          40.250    21313497.065    87275194.152        1074.691          49.500  
G10  20419621.428   107305835.071         349.171          53.000    20419621.122   107305833.327         349.171          46.750    20419623.020    83614936.443         272.065          46.750    20419622.717    83614937.205         272.060          53.250  
G23  20788894.014   109246378.926       -1793.023          48.500    20788893.687   109246369.177       -1793.023          40.000    20788893.894    85127042.007       -1397.190          40.000                                                                  
G18  23398906.373   122962203.160       -3347.555          40.750    23398906.280   122962082.437       -3347.555          25.500    23398908.331    95814609.329       -2608.474          25.500    23398906.664    95814624.120       -2608.508          38.500  
G20  20838164.914   109505273.278       -1990.283          49.500    20838163.969   109505295.525       -1990.283          39.500    20838163.813    85328801.421       -1550.926          39.500                                                                  
R24  19666592.260   105166102.296       -2077.136          52.250    19666592.452   105166097.551       -2077.136          51.750    19666598.082    81795859.491       -1615.557          47.750    19666598.544    81795861.733       -1615.550          46.500  
G21  21251020.835   111674897.019        1347.717          47.000    21251019.957   111674867.282        1347.717          39.500    21251019.528    87019377.330        1050.222          39.500                                                                  
R08  21921450.918   117388363.792       -3736.908          48.750    21921451.176   117388368.045       -3736.908          48.000    21921455.535    91302064.146       -2906.514          41.750    21921454.852    91302064.398       -2906.482          42.250  
R02  21165509.435   112943393.231        3824.327          51.250    21165510.136   112943220.497        3824.327          50.750    21165517.979    87844727.766        2974.453          46.500    21165517.028    87844729.014        2974.451          45.500  
G32  23925070.015   125727094.890        3626.147          46.500    23925070.099   125727097.122        3626.147          31.750    23925073.109    97969170.086        2825.562          31.750    23925073.846    97969165.840        2825.596          43.250  
G15  23679119.098   124434610.233       -2939.202          41.000    23679118.714   124434606.490       -2939.202          36.750    23679121.077    96962029.880       -2290.321          36.750    23679122.674    96962042.630       -2290.327          39.500  
> 2020 09 18 08 07 45.0000000  0 15                     
R01  19401782.788   103713906.471        -919.246          49.250    19401782.575   103713652.719        -919.246          48.250    19401790.655    80666169.368        -714.965          44.750    19401790.652    80666172.624        -714.962          43.250  
R17  19492490.021   104308370.963        1996.520          50.750    19492490.150   104308343.211        1996.520          50.750    19492496.344    81128640.178        1552.865          50.500    19492496.152    81128640.427        1552.871          49.250  
G27  20715243.296   108859020.916       -1125.632          51.000    20715242.841   108859334.174       -1125.632          44.500    20715244.682    84825455.359        -877.120          44.500    20715244.517    84825471.114        -877.134          52.250  
R23  22362148.623   119622415.461       -3939.125          46.250    22362147.358   119622421.718       -3939.125          46.000    22362157.568    93039641.978       -3063.729          36.000    22362156.201    93039643.213       -3063.769          34.000  
G08  21313232.016   112001334.336        1377.862          47.500    21313232.357   112001789.570        1377.862          40.250    21313234.138    87274122.287        1073.630          40.250    21313234.705    87274120.047        1073.631          49.500  
G10  20419555.141   107305486.695         347.806          53.000    20419554.790   107305484.956         347.806          46.750    20419556.691    83614664.983         271.025          46.750    20419556.457    83614665.747         271.026          53.250  
G23  20789235.388   109248172.667       -1794.271          48.500    20789235.091   109248162.923       -1794.271          40.250    20789235.382    85128439.725       -1398.100          40.250                                                                  
G18  23399543.219   122965551.199       -3348.440          41.250    23399543.888   122965430.477       -3348.440          25.000    23399545.657    95817218.186       -2609.221          25.000    23399543.600    95817232.983       -2609.234          38.500  
G20  20838543.474   109507264.241       -1991.407          49.250    20838542.757   109507286.500       -1991.407          39.250    20838542.874    85330352.823       -1551.770          39.250                                                                  
R24  19666980.657   105168180.160       -2078.462          52.500    19666981.133   105168175.414       -2078.462          51.750    19666987.111    81797475.596       -1616.560          47.750    19666987.090    81797477.850       -1616.581          46.500  
G21  21250764.234   111673549.852        1346.790          47.000    21250763.850   111673520.115        1346.790          39.500    21250762.873    87018327.578        1049.382          39.500                                                                  
R08  21922149.117   117392101.368       -3738.086          48.750    21922149.018   117392105.621       -3738.086          48.250    21922153.113    91304971.150       -2907.383          41.750    21922153.221    91304971.403       -2907.406          42.250  
R02  21164793.605   112939569.547        3823.187          51.500    21164793.653   112939396.806        3823.187          50.750    21164801.400    87841753.784        2973.608          46.500    21164800.521    87841755.030        2973.608          45.500  
G32  23924380.447   125723469.279        3625.268          46.500    23924380.201   125723471.511        3625.268          32.000    23924383.445    97966344.932        2824.914          32.000    23924384.497    97966340.684        2824.914          43.250  
G15  23679678.103   124437550.085       -2940.397          41.000    23679677.446   124437546.338       -2940.397          37.000    23679679.728    96964320.670       -2291.277          37.000    23679680.052    96964333.422       -2291.288          39.500  
> 2020 09 18 08 07 46.0000000  0 15                     
R01  19401954.368   103714825.773        -919.468          49.000    19401954.554   103714572.027        -919.468          48.250    19401961.872    80666884.383        -715.196          44.750    19401962.925    80666887.637        -715.203          43.250  
R17  19492117.532   104306374.352        1996.559          51.000    19492117.187   104306346.601        1996.559          50.750    19492123.039    81127087.259        1552.860          50.500    19492123.042    81127087.508        1552.867          49.250  
G27  20715457.672   108860146.453       -1125.639          51.000    20715456.977   108860459.706       -1125.639          44.500    20715458.874    84826332.397        -877.114          44.500    20715458.826    84826348.153        -877.118          52.250  
R23  22362884.337   119626354.288       -3938.705          46.750    22362884.223   119626360.554       -3938.705          46.250    22362895.256    93042705.515       -3063.457          36.000    22362893.421    93042706.761       -3063.429          34.000  
G08  21312969.820   111999956.389        1377.904          47.500    21312970.000   112000411.634        1377.904          40.250    21312971.868    87273048.565        1073.616          40.250    21312972.041    87273046.318        1073.655          49.500  
G10  20419488.791   107305138.768         347.971          53.000    20419488.671   107305137.025         347.971          46.750    20419490.536    83614393.870         271.115          46.750    20419490.221    83614394.634         271.103          53.500  
G23  20789576.884   109249966.806       -1794.143          48.500    20789576.291   109249957.058       -1794.143          40.000    20789576.483    85129837.750       -1398.056          40.000                                                                  
G18  23400181.019   122968899.280       -3347.890          41.250    23400181.298   122968778.562       -3347.890          26.000    23400183.072    95819827.083       -2608.740          26.000    23400181.441    95819841.870       -2608.752          38.500  
G20  20838922.600   109509255.570       -1991.304          49.500    20838921.980   109509277.813       -1991.304          39.500    20838921.962    85331904.498       -1551.684          39.500                                                                  
R24  19667369.376   105170258.575       -2078.477          52.500    19667369.796   105170253.829       -2078.477          51.750    19667375.297    81799092.146       -1616.619          47.750    19667375.711    81799094.395       -1616.633          46.500  
G21  21250508.103   111672202.906        1347.054          47.000    21250507.267   111672173.169        1347.054          39.500    21250506.568    87017278.014        1049.604          39.500                                                                  
R08  21922846.776   117395839.215       -3737.742          48.500    21922847.001   117395843.468       -3737.742          48.000    21922849.594    91307878.364       -2907.136          41.500    21922851.045    91307878.614       -2907.125          42.000  
R02  21164077.200   112935746.205        3823.385          51.250    21164077.338   112935573.466        3823.385          50.750    21164084.000    87838780.072        2973.719          46.750    21164083.961    87838781.322        2973.728          45.500  
G32  23923690.175   125719843.679        3625.824          46.500    23923690.031   125719845.909        3625.824          32.000    23923693.311    97963519.794        2825.322          32.000    23923694.129    97963515.541        2825.342          43.250  
G15  23680237.591   124440490.277       -2940.225          41.000    23680237.120   124440486.527       -2940.225          36.750    23680239.308    96966611.722       -2291.045          36.750    23680239.204    96966624.472       -2291.047          39.250  
> 2020 09 18 08 07 47.0000000  0 15                     
R01  19402126.542   103715746.006        -920.645          49.000    19402126.671   103715492.258        -920.645          48.250    19402135.050    80667600.122        -716.065          44.750    19402135.002    80667603.372        -716.054          43.250  
R17  19491744.461   104304378.423        1995.656          51.250    19491744.320   104304350.669        1995.656          50.750    19491750.067    81125534.870        1552.189          50.500    19491749.980    81125535.118        1552.195          49.250  
G27  20715671.772   108861272.739       -1126.675          51.000    20715671.265   108861585.990       -1126.675          44.500    20715672.947    84827210.023        -877.897          44.500    20715673.175    84827225.778        -877.910          52.250  
R23  22363620.948   119630293.491       -3939.380          46.750    22363620.022   119630299.754       -3939.380          46.000    22363630.566    93045769.343       -3063.934          35.750    22363629.115    93045770.571       -3063.937          34.000  
G08  21312707.768   111998579.114        1377.016          47.250    21312708.032   111999034.353        1377.016          40.250    21312709.780    87271975.355        1073.004          40.250    21312710.281    87271973.116        1073.017          49.500  
G10  20419422.777   107304791.507         347.020          53.000    20419422.531   107304789.763         347.020          46.750    20419424.501    83614123.276         270.430          46.750    20419424.294    83614124.040         270.414          53.500  
G23  20789917.997   109251761.514       -1794.920          48.500    20789918.000   109251751.770       -1794.920          40.000    20789918.033    85131236.225       -1398.675          40.000                                                                  
G18  23400818.342   122972247.632       -3348.340          41.500    23400818.722   122972126.922       -3348.340          26.000    23400820.371    95822436.199       -2609.174          26.000    23400818.306    95822450.968       -2609.112          38.500  
G20  20839301.577   109511247.422       -1992.108          49.500    20839300.701   109511269.671       -1992.108          39.250    20839300.393    85333456.593       -1552.267          39.250                                                                  
R24  19667758.852   105172337.708       -2079.432          52.750    19667758.753   105172332.959       -2079.432          51.750    19667763.816    81800709.245       -1617.302          47.500    19667764.476    81800711.495       -1617.309          46.250  
G21  21250252.326   111670856.362        1346.404          46.750    21250251.058   111670826.630        1346.404          39.750    21250250.699    87016228.771        1049.125          39.750                                                                  
R08  21923544.540   117399577.562       -3738.505          48.500    21923545.071   117399581.812       -3738.505          48.000    21923549.184    91310785.969       -2907.710          41.750    21923549.334    91310786.217       -2907.688          42.000  
R02  21163360.744   112931923.386        3822.599          51.500    21163360.936   112931750.648        3822.599          50.750    21163368.056    87835806.769        2973.163          46.750    21163367.475    87835808.018        2973.169          45.500  
G32  23923000.592   125716218.298        3625.313          46.750    23923000.257   125716220.527        3625.313          32.000    23923003.317    97960694.823        2824.913          32.000    23923003.800    97960690.572        2824.979          43.500  
G15  23680797.336   124443431.039       -2941.058          41.250    23680796.695   124443427.290       -2941.058          36.750    23680798.796    96968903.219       -2291.683          36.750    23680798.787    96968915.983       -2291.737          39.500  
